City,Cloudiness,Country,Date,Humidity,Lat,Lng,Max Temp,Wind Speed
Faanui,100,PF,1570415541,84,-16.48,-151.75,77.16200000000006,7.484
Vaini,40,IN,1570415249,94,15.34,74.49,71.6,1.06
Beyneu,1,KZ,1570415541,47,45.32,55.19,55.958000000000006,5.7
Saint-Philippe,75,CA,1570415250,87,45.36,-73.48,62.00600000000003,4.1
Wanning,75,AT,1570415213,87,48.64,13.53,46.004000000000055,4.1
Xuddur,71,SO,1570415542,83,4.12,43.89,72.608,4.7
Rikitea,100,PF,1570415330,86,-23.12,-134.97,73.74199999999999,5.06
Hermanus,32,ZA,1570415542,94,-34.42,19.24,57.00200000000008,0.45
East London,99,ZA,1570415542,92,-33.02,27.91,61.7,1.9
Qaanaaq,100,GL,1570415542,77,77.48,-69.36,19.868000000000087,7.67
Tasiilaq,79,GL,1570415543,93,65.61,-37.64,41.0,1.3
Luderitz,0,NA,1570415543,71,-26.65,15.16,57.2,3.6
Sokolo,100,ML,1570415252,56,14.74,-6.12,82.25600000000003,2.66
Rurrenabaque,100,BO,1570415543,99,-14.44,-67.53,58.280000000000044,0.41
Grand-Lahou,66,CI,1570415543,98,5.24,-5,71.69000000000003,1.14
Sola,43,TZ,1570415544,65,-3.17,33.8,67.85600000000002,4.9
Ribeira Grande,69,PT,1570415544,94,38.52,-28.7,68.64800000000002,9.85
Cheyenne,1,US,1570415544,41,41.14,-104.82,48.00200000000008,2.1
Cap Malheureux,40,MU,1570415253,83,-19.98,57.61,73.99400000000007,5.7
Albany,90,US,1570415253,82,42.65,-73.75,66.2,4.6
Ilulissat,100,GL,1570415253,95,69.22,-51.1,32.0,5.7
Henties Bay,0,NA,1570415194,87,-22.12,14.28,56.26400000000003,6.67
Jinxiang,73,CN,1570415253,70,35.07,116.31,60.008,2.335
Mataura,90,NZ,1570415253,47,-46.19,168.86,62.99600000000005,3.58
Nikolskoye,0,RU,1570415112,86,59.7,30.79,35.99600000000005,1
Avarua,100,CK,1570415254,53,-21.21,-159.78,71.6,5.7
Khatanga,0,RU,1570415254,87,71.98,102.47,22.928000000000065,4.04
Mar del Plata,100,AR,1570415254,64,-46.43,-67.52,51.44000000000002,10.593
Jamestown,100,AU,1570415254,69,-33.21,138.6,57.41600000000001,6.241
Adrar,0,DZ,1570415255,17,27.87,-0.29,77.0,7.7
Mahebourg,40,MU,1570415255,83,-20.41,57.7,73.99400000000007,5.7
Miri,95,NG,1570415255,90,10.31,9.75,70.25,1.31
Bluff,0,AU,1570415255,17,-23.58,149.07,94.17200000000004,2.77
Busselton,3,AU,1570415255,41,-33.64,115.35,66.99199999999999,3.65
Labuhan,100,ID,1570415130,49,-2.54,115.51,91.00400000000005,0.98
Bredasdorp,0,ZA,1570415256,87,-34.53,20.04,57.00200000000008,1.5
Margate,75,AU,1570415218,44,-43.03,147.26,57.2,5.1
Tiksi,91,RU,1570415229,92,71.64,128.87,24.422000000000036,2.37
Pevek,88,RU,1570415256,70,69.7,170.27,24.098000000000024,2.309
Kapaa,90,US,1570415146,94,22.08,-159.32,82.4,6.2
Cherskiy,15,RU,1570415256,79,68.75,161.3,19.544000000000075,1.57
Victoria,75,BN,1570415048,79,5.28,115.24,86.0,2.1
Sydney,75,AU,1570415257,64,-33.85,151.22,80.00600000000003,6.2
Vallenar,6,CL,1570415257,48,-28.58,-70.76,56.12000000000006,1.784
Ushuaia,40,AR,1570415257,80,-54.81,-68.31,35.6,12.9
Kurilsk,67,RU,1570415257,70,45.23,147.88,54.842,8.01
Clyde River,40,CA,1570415258,85,70.47,-68.59,21.2,1.5
Belyy Yar,75,RU,1570415258,93,53.6,91.39,41.0,1.322
Cape Town,75,ZA,1570415258,93,-33.93,18.42,60.998000000000026,2.1
Russell,1,US,1570415258,71,38.9,-98.86,53.00600000000003,2.6
Gravdal,0,NO,1570415258,86,59.79,5.78,39.992,4.1
Pontal do Parana,90,BR,1570415259,100,-25.67,-48.51,62.99600000000005,2.1
Kaitangata,98,NZ,1570415259,68,-46.28,169.85,53.99600000000005,2.68
San Patricio,36,PY,1570415259,96,-26.98,-56.83,58.94600000000005,2.06
Barrow,85,AR,1570415259,41,-38.31,-60.23,60.62000000000006,9.243
Saint-Pierre,90,FR,1570415259,100,48.95,4.24,53.6,6.2
Lebu,20,ET,1570415259,81,8.96,38.73,53.6,2.1
Sechura,54,PE,1570415260,87,-5.56,-80.82,61.93399999999999,6.38
Yellowknife,90,CA,1570415260,93,62.45,-114.38,35.6,7.7
Qingdao,90,CN,1570415260,67,36.09,120.35,59.0,4
Hilo,90,US,1570415156,54,19.71,-155.08,84.2,2.6
Puerto Ayora,8,EC,1570415260,95,-0.74,-90.35,66.00200000000008,0.45
Punta Arenas,20,CL,1570415250,69,-53.16,-70.91,39.2,7.7
Hualmay,16,PE,1570415261,92,-11.1,-77.61,60.35,6.68
Mendi,100,ET,1570415261,96,9.8,35.1,60.74600000000005,1.22
Kodiak,1,US,1570415261,87,39.95,-94.76,53.6,1.67
Cabo San Lucas,5,MX,1570414972,58,22.89,-109.91,84.99199999999999,5.1
Fortuna,1,US,1570415261,82,40.6,-124.16,59.0,3.1
Mukhen,12,RU,1570415262,47,48.19,136.14,57.65,6.17
Bud,0,NO,1570415262,52,62.91,6.91,37.4,3.6
Hithadhoo,81,MV,1570415262,77,-0.6,73.08,81.66200000000006,6.27
Bazarnyye Mataki,100,RU,1570415262,43,54.9,49.93,50.018000000000086,7.38
Alice Springs,0,AU,1570415262,9,-23.7,133.88,87.8,2.1
Nyagan,100,RU,1570415263,80,62.14,65.43,38.030000000000044,1.31
Fairbanks,90,US,1570415054,86,64.84,-147.72,33.998000000000026,6.7
Kungurtug,24,RU,1570415263,62,50.6,97.53,44.024000000000015,0.93
Tuktoyaktuk,90,CA,1570415263,93,69.44,-133.03,32.0,6.2
Chuy,0,UY,1570415263,89,-33.69,-53.46,53.36600000000001,2.899
Fayaoue,0,NC,1570415263,75,-20.65,166.53,72.82400000000001,5.71
Thompson,75,CA,1570415264,86,55.74,-97.86,37.4,3.6
Bahia Blanca,100,AR,1570415264,39,-38.72,-62.27,65.76800000000009,7.2
Lompoc,1,US,1570415264,72,34.64,-120.46,69.8,2.1
Port Alfred,100,ZA,1570415264,93,-33.59,26.89,64.00400000000005,3.58
Pierre,1,US,1570415264,53,44.37,-100.35,55.004000000000055,4.6
Monrovia,75,LR,1570415265,94,6.33,-10.8,77.0,2.83
Lorengau,28,PG,1570415122,77,-2.02,147.27,83.80400000000006,3.68
Sarkand,0,KZ,1570415265,30,45.41,79.91,66.16400000000003,0.48
Provideniya,90,RU,1570415127,80,64.42,-173.23,35.6,6
Mweka,100,CD,1570415266,98,-4.85,21.56,69.33200000000002,0.91
Alofi,88,NU,1570415107,61,-19.06,-169.92,78.8,7.7
Klaksvik,80,FO,1570415158,87,62.23,-6.59,50.0,16.5
Avenal,75,US,1570415266,35,36,-120.13,78.8,3.1
Nastola,90,FI,1570415267,100,60.95,25.93,35.6,0.5
Nantucket,90,US,1570415204,88,41.28,-70.1,68.0,6.2
Kharan,0,PK,1570415267,51,28.58,65.42,75.34400000000008,2.46
Ostrovnoy,100,RU,1570415140,96,68.05,39.51,32.018000000000086,4.76
Koslan,98,RU,1570415267,93,63.46,48.9,31.406000000000027,2.59
Ambilobe,0,MG,1570415268,70,-13.19,49.05,74.066,4.87
Vagur,92,FO,1570415268,81,61.47,-6.81,50.41400000000003,17.94
Khuzhir,100,RU,1570415268,81,53.19,107.35,29.51600000000001,3.67
Dunedin,70,NZ,1570415269,75,-45.87,170.5,53.99600000000005,7.15
Lubumbashi,26,CD,1570415118,57,-11.66,27.48,66.25400000000005,2.75
Constitucion,75,MX,1570415269,45,23.99,-104.67,64.4,2.1
Imeni Poliny Osipenko,100,RU,1570415269,52,52.42,136.49,54.69800000000002,3.3
Georgetown,20,GY,1570415269,94,6.8,-58.16,82.4,6.235
Santa Cruz,44,BR,1570415270,92,-6.22,-36.02,69.78200000000001,3.523
Sabang,16,PH,1570415270,86,13.8,121.11,82.00400000000005,1.79
Upernavik,0,GL,1570415270,76,72.79,-56.15,28.418000000000085,2.02
Castro,40,CL,1570415270,87,-42.48,-73.76,44.6,3.1
Shenjiamen,18,CN,1570415270,65,29.96,122.3,72.28399999999999,1.591
Longyearbyen,75,NO,1570415270,90,78.22,15.63,32.0,6.7
Xuanhua,0,CN,1570415271,25,40.61,115.04,60.13399999999999,5.8
Chapais,75,CA,1570415271,87,49.78,-74.86,50.0,6.2
Esperance,75,AU,1570415271,100,-33.86,121.89,55.4,4.1
Lufilufi,100,WS,1570415271,82,-13.87,-171.6,79.23200000000001,10.119
Carnarvon,3,ZA,1570415158,49,-30.97,22.13,50.03600000000007,7.13
Ambulu,100,ID,1570415272,87,-8.35,113.61,76.01000000000008,5.61
Zheshart,99,RU,1570415272,96,62.09,49.59,32.504000000000055,4.67
Makat,97,KZ,1570415272,30,47.65,53.35,54.53600000000007,6.36
Butaritari,0,KI,1570415272,63,3.07,172.79,84.65,1.21
Camacha,75,PT,1570415272,73,33.08,-16.33,73.4,6.2
Iesolo,75,IT,1570415273,71,45.53,12.64,57.2,4.6
Pocone,36,BR,1570415273,74,-16.26,-56.62,69.72800000000007,2.91
Atuona,0,PF,1570415273,68,-9.8,-139.03,80.33000000000004,6.14
Hobart,75,AU,1570415121,44,-42.88,147.33,57.2,5.1
Kantang,20,TH,1570415274,88,7.42,99.52,80.6,2.6
Hofn,100,IS,1570415274,91,64.25,-15.21,49.02800000000006,7.632
Lagoa,0,PT,1570415274,68,37.14,-8.45,68.0,4.44
High Prairie,44,CA,1570415274,50,55.43,-116.48,46.90400000000005,4.79
Torbay,20,CA,1570415274,86,47.66,-52.73,44.00600000000003,3.1
Rovnoye,100,RU,1570415275,72,50.78,46.06,55.688000000000045,1.87
Coihaique,75,CL,1570415275,86,-45.58,-72.07,41.0,0.5
Ponta do Sol,95,BR,1570415182,62,-20.63,-46,71.78000000000004,2.18
Shelburne,1,CA,1570415275,76,44.08,-80.2,53.99600000000005,3.6
Feijo,75,EC,1570415275,83,-3.63,-79.92,89.6,2.1
Rio Claro,77,BR,1570415149,87,-22.41,-47.56,64.58000000000004,6.12
Bara,77,NG,1570415276,92,10.41,10.6,70.97000000000006,1.608
Bethel,75,US,1570415276,56,60.79,-161.76,44.6,4.1
Cotonou,40,BJ,1570415276,88,6.37,2.43,78.8,4.1
Sisimiut,15,GL,1570415276,72,66.94,-53.67,34.016000000000005,3.49
Calderitas,75,MX,1570415277,88,18.55,-88.26,78.8,1.88
Swanton,1,US,1570415030,51,41.59,-83.89,62.6,3.6
Burley,1,US,1570415277,37,42.54,-113.79,51.8,2.6
Santiago del Estero,0,AR,1570415277,51,-27.8,-64.26,62.978000000000065,3.635
Chokurdakh,100,RU,1570415114,86,70.62,147.9,21.038000000000046,2.84
Aktau,0,KZ,1570415277,22,43.65,51.16,59.0,4
Yurty,97,RU,1570415278,82,56.05,97.64,49.78399999999999,4.617
Gannan,100,CN,1570415278,54,47.92,123.49,52.538000000000046,2.826
New Norfolk,75,AU,1570415278,44,-42.78,147.06,57.2,5.1
Saryg-Sep,0,RU,1570415278,56,51.49,95.55,48.23600000000007,1.03
Kavieng,1,PG,1570415279,75,-2.57,150.8,83.58800000000005,6.3
Buin,0,CL,1570415279,39,-33.73,-70.74,64.4,1.5
Tete,0,MZ,1570415279,69,-16.16,33.59,75.2,2.6
Verkhnevilyuysk,76,RU,1570415279,88,63.45,120.31,34.71800000000009,2.35
Saldanha,9,PT,1570415126,50,41.42,-6.55,57.97400000000001,0.59
Marawi,93,PH,1570415280,72,8,124.29,84.99199999999999,2.68
Saskylakh,90,RU,1570415280,95,71.97,114.09,18.59000000000002,2.87
San Cristobal,75,HN,1570415280,91,14.68,-86.92,67.658,2.02
High Level,90,CA,1570415280,53,58.52,-117.13,51.8,3.1
Upington,0,ZA,1570415280,38,-28.46,21.24,60.8,4.1
Raymond,40,CA,1570415281,43,49.47,-112.67,51.998000000000026,9.3
Port Elizabeth,90,US,1570415281,68,39.31,-74.98,71.6,2.1
Lithakia,20,GR,1570415281,100,37.72,20.83,66.00200000000008,3.38
Male,93,UA,1570415281,71,50.74,33.7,38.04800000000002,2.59
Patterson,1,US,1570415282,30,37.47,-121.13,77.0,3.1
Nome,1,US,1570415282,78,30.04,-94.42,82.99400000000007,1.5
Huarmey,48,PE,1570415282,93,-10.07,-78.15,60.36800000000009,6.44
Padang,100,ID,1570415282,82,-0.92,100.36,78.11600000000001,5.62
Talakan,100,RU,1570415283,57,50.29,130.28,50.81000000000008,2.855
Santa Lucia,40,IT,1570415283,87,41.98,12.66,64.4,1.5
Oistins,75,BB,1570415247,88,13.07,-59.53,78.8,10.8
Carlyle,1,CA,1570415283,61,49.63,-102.27,48.2,5.7
Codrington,0,AU,1570415157,30,-28.95,153.24,98.00600000000003,1.5
Vao,100,EE,1570415283,97,59.1,26.19,35.438000000000045,2.62
Taquara,75,BR,1570415284,88,-29.65,-50.78,62.6,5.1
Uvalde,1,US,1570415149,48,29.21,-99.79,84.2,2.6
Limanowa,0,PL,1570415284,92,49.71,20.42,33.008,1
Esmeraldas,0,BR,1570415284,64,-19.76,-44.31,73.4,3.1
San Ramon,100,NI,1570415284,95,12.92,-85.84,66.12800000000007,1.05
Madison,1,US,1570415220,76,43.07,-89.38,55.4,3.1
Kalmunai,100,LK,1570415285,80,7.42,81.82,78.65600000000003,0.4
Heihe,40,RU,1570415285,39,50.24,127.51,50.0,1.23
Bambanglipuro,100,ID,1570415285,51,-7.95,110.28,85.94600000000005,5.868
Nurota,31,UZ,1570415285,29,40.56,65.69,64.22000000000006,3.2
Buala,70,SB,1570415285,76,-8.15,159.59,83.35400000000006,5.104
Norman Wells,75,CA,1570415286,64,65.28,-126.83,32.0,4.6
Arraial do Cabo,80,BR,1570415088,89,-22.97,-42.02,70.98800000000004,2.42
Chambas,75,CU,1570415286,78,22.19,-78.91,82.4,2.6
Bay Roberts,20,CA,1570415286,86,47.58,-53.28,44.00600000000003,3.1
Yuzhno-Kurilsk,100,RU,1570415287,69,44.03,145.86,55.76000000000008,8.338
Iwaki,75,JP,1570415287,93,37.05,140.89,71.99600000000005,2.6
Dikson,55,RU,1570415287,79,73.51,80.55,23.57600000000009,11.68
La Paz,5,MX,1570415092,51,24.15,-110.32,86.0,2.6
Ewa Beach,75,US,1570415003,58,21.32,-158.01,84.2,3.6
Manta,100,RO,1570415287,64,45.1,24.1,45.89600000000005,0.83
Ishigaki,20,JP,1570415288,74,24.34,124.16,82.4,4.1
Ahipara,71,NZ,1570415288,83,-35.17,173.16,60.20600000000003,5.53
Ixtapa,75,MX,1570415288,66,20.71,-105.21,84.99199999999999,3.1
Airai,0,TL,1570415288,34,-8.93,125.41,83.03000000000004,4.157
Venado Tuerto,0,AR,1570415288,47,-33.75,-61.97,59.0,8.94
Varkaus,0,FI,1570415289,100,62.32,27.87,35.00600000000003,1.71
Hasaki,75,JP,1570415289,73,35.73,140.83,75.99199999999999,3.6
Morant Bay,20,JM,1570415108,74,17.88,-76.41,82.4,7.2
Ulcinj,75,ME,1570415289,47,41.93,19.22,57.2,4.1
Lata,100,IN,1570415289,61,30.78,78.62,39.254000000000055,2.29
Wilmington,90,US,1570415226,68,39.75,-75.55,71.99600000000005,5.7
Quatre Cocos,40,MU,1570415290,83,-20.21,57.76,73.99400000000007,5.7
Ancud,40,CL,1570415290,87,-41.87,-73.83,44.6,3.1
Belfast,100,GB,1570415290,87,54.6,-5.93,53.6,7.2
Dingli,75,IN,1570415291,41,28.39,75.51,79.016,4.24
Westport,90,US,1570415291,77,41.14,-73.36,69.99800000000002,6.2
Kruisfontein,100,ZA,1570415291,84,-34,24.73,58.01000000000008,0.67
Aberdeen,1,US,1570415222,71,46.98,-123.82,57.992,1.5
Iqaluit,75,CA,1570415291,86,63.75,-68.52,37.4,2.1
Prince George,90,CA,1570415291,57,53.92,-122.75,51.8,9.3
Chivilcoy,0,AR,1570415292,56,-34.9,-60.02,56.28200000000002,7.34
Shimoda,75,JP,1570415292,73,34.7,138.93,80.99600000000005,8.2
Ayan,20,IR,1570415292,34,38.23,44.7,66.2,1
Atasu,0,KZ,1570415292,32,48.68,71.64,50.233999999999995,3.88
Pisco,90,PE,1570415293,82,-13.71,-76.2,62.00600000000003,5.1
Bom Jesus da Lapa,77,BR,1570415293,39,-13.25,-43.41,80.79800000000003,2.842
Cidreira,91,BR,1570415293,87,-30.17,-50.22,58.64000000000002,2.58
La Gomera,100,GT,1570415294,72,14.09,-91.05,80.83399999999999,0.84
Nalchiti,100,BD,1570415294,70,22.63,90.28,84.16400000000003,0.64
Brewster,90,US,1570415294,77,41.76,-70.08,68.0,5.7
Camargo,100,MX,1570415294,63,27.69,-105.17,74.42600000000009,2.207
Mehamn,100,NO,1570415294,84,71.03,27.85,40.56800000000008,2.84
Gat,89,SN,1570415295,94,14.69,-16.54,78.8,3.1
Tupik,100,RU,1570415295,60,54.43,119.94,34.12400000000001,4.13
Mitsamiouli,13,KM,1570415295,76,-11.38,43.28,79.30400000000006,7.76
Oron,100,NG,1570415295,94,4.81,8.23,74.75,1.65
Clonakilty,75,IE,1570415295,100,51.62,-8.87,57.00200000000008,9.3
Kavali,9,IN,1570415296,68,14.91,79.99,83.76800000000009,0.83
Sao Filipe,100,CV,1570415296,90,14.9,-24.5,77.01800000000009,3.961
Bolobo,100,CD,1570415296,91,-2.17,16.23,73.14800000000002,1.72
Aklavik,75,CA,1570415283,59,68.22,-135.01,35.6,4.1
Rawson,10,AR,1570415297,41,-43.3,-65.11,52.34000000000002,15.88
Ouesso,100,CG,1570415297,98,1.61,16.05,70.16000000000008,0.85
Porto Novo,75,BR,1570415297,77,-23.68,-45.44,68.0,1.5
Staryy Krym,0,UA,1570415297,74,45.03,35.1,43.43000000000004,0.8
Kulhudhuffushi,99,MV,1570415298,78,6.62,73.07,81.80600000000003,4.37
Rivadavia,12,AR,1570415298,23,-31.53,-68.59,53.69000000000002,1.42
Nemuro,75,JP,1570415265,62,43.32,145.57,59.0,4.1
Sistranda,75,NO,1570415298,75,63.73,8.83,44.99600000000005,3.1
Inuvik,75,CA,1570415230,59,68.36,-133.71,35.6,4.1
North Bend,1,US,1570415298,82,43.41,-124.22,60.008,7.7
Kiruna,62,SE,1570415299,86,67.86,20.23,33.8,1.5
Vrangel,100,RU,1570415299,75,42.73,133.08,58.38800000000005,5.144
Porto Belo,75,BR,1570415299,93,-27.15,-48.54,64.4,1.5
Broome,97,GB,1570415228,93,52.47,1.45,51.998000000000026,1.25
Takaka,0,NZ,1570415299,75,-40.86,172.81,57.992,2.68
Reconquista,0,AR,1570415300,80,-29.14,-59.64,56.372000000000035,2.556
Sitka,0,US,1570415300,73,37.17,-99.65,51.998000000000026,1.79
Shache,100,CN,1570415300,79,38.42,77.24,69.99800000000002,6.32
Saint Cloud,75,US,1570415300,58,45.56,-94.16,55.99400000000007,3.1
Sept-Iles,90,CA,1570415300,87,50.2,-66.38,44.00600000000003,2.1
Faya,0,SA,1570415301,52,18.39,42.45,64.4,0.69
Fairmont,1,US,1570415301,81,40.64,-97.59,53.99600000000005,2.27
Hamilton,90,CA,1570415123,55,43.26,-79.87,62.99600000000005,6.7
Praia da Vitoria,40,PT,1570415301,83,38.73,-27.07,73.4,6.34
Port Washington,1,US,1570415116,71,43.39,-87.88,57.2,4.1
Atherton,40,AU,1570415301,48,-17.27,145.48,87.00800000000001,4.6
Tilichiki,100,RU,1570415302,96,60.47,166.1,38.228000000000065,6.48
Srednekolymsk,0,RU,1570415302,77,67.46,153.71,20.768000000000086,3.14
Hambantota,40,LK,1570415302,100,6.12,81.12,73.4,1
Mahibadhoo,93,MV,1570415302,69,3.78,72.97,82.68800000000005,1.27
Kayerkan,90,RU,1570415302,96,69.35,87.76,32.0,4
Narsaq,75,GL,1570415303,37,60.91,-46.05,50.0,5.7
Cravo Norte,0,CO,1570415303,82,6.3,-70.2,78.40400000000005,2.27
Sidrolandia,40,BR,1570415303,93,-20.93,-54.96,64.4,6.2
Davenda,100,RU,1570415303,51,53.56,119.32,35.79800000000002,4.86
Mahon,75,IE,1570415303,100,51.89,-8.4,57.00200000000008,9.3
Popova,33,RS,1570415304,93,43.33,21.27,41.0,1.5
Cedar City,1,US,1570415304,31,37.68,-113.06,48.2,2.1
Juigalpa,100,NI,1570415304,92,12.1,-85.37,76.29800000000003,3.361
Sangueya,100,GN,1570415304,87,10.7,-14.37,76.658,3.11
Agbor,100,NG,1570415304,99,6.26,6.15,71.31200000000005,1.068
Havelock,75,US,1570415254,69,34.88,-76.9,75.2,3.6
Dabeiba,100,CO,1570415305,97,7,-76.27,69.89000000000001,0.43
Manokwari,100,ID,1570415305,75,-0.87,134.08,79.71800000000009,2.64
Wasilla,90,US,1570415305,80,61.58,-149.44,48.2,2.1
Luanda,75,AO,1570415305,88,-8.83,13.24,73.4,1.5
Vostok,0,RU,1570415306,49,46.45,135.83,55.958000000000006,2.83
Amuntai,100,ID,1570415306,44,-2.42,115.25,93.95600000000003,1.31
Moussoro,86,TD,1570415306,68,13.64,16.49,78.24199999999999,5.63
Adre,73,TD,1570415306,79,13.47,22.2,72.53600000000007,0.62
Kamenka,97,MD,1570415306,82,48.03,28.7,37.99400000000007,2.21
Natal,75,BR,1570415307,78,-5.81,-35.21,78.8,4.1
Jaisalmer,0,IN,1570415307,50,26.91,70.91,78.99800000000002,4.647
Novyy Urengoy,9,RU,1570415307,78,66.08,76.63,32.88200000000002,8.355
Paamiut,0,GL,1570415307,75,61.99,-49.67,38.73200000000001,10.8
Ampanihy,0,MG,1570415308,61,-24.69,44.75,70.84400000000008,3.26
Comodoro Rivadavia,75,AR,1570415308,71,-45.87,-67.48,50.0,9.8
Sangar,98,RU,1570415308,54,63.92,127.47,32.19800000000002,5.61
Baghdad,0,IQ,1570415309,46,33.3,44.38,73.4,0.95
Sol-Iletsk,98,RU,1570415309,35,51.16,55,49.38800000000005,6.17
Copacabana,100,BO,1570415309,58,-16.17,-69.08,45.842,1.01
Manggar,100,ID,1570415309,88,-2.88,108.27,75.97400000000002,2.85
Ciudad del Maiz,0,MX,1570415309,80,22.4,-99.6,70.44800000000002,2.45
Formosa,100,BR,1570415310,74,-15.55,-47.33,69.76400000000004,1.36
Meulaboh,40,ID,1570415310,77,4.14,96.13,79.73600000000008,2.21
Paciran,67,ID,1570415310,41,-6.9,112.33,92.96600000000001,2.514
Iquique,90,CL,1570415310,67,-20.22,-70.14,59.0,2.1
Kesova Gora,100,RU,1570415310,96,57.58,37.3,32.432000000000016,4.66
Yuxia,20,CN,1570415311,93,34.06,108.63,66.00200000000008,1
Necochea,67,AR,1570415262,56,-38.55,-58.74,60.998000000000026,9.39
Bar,75,ME,1570415311,47,42.1,19.1,57.2,4.1
Hay River,90,CA,1570415311,100,60.82,-115.79,42.8,3.1
Pacific Grove,1,US,1570415312,49,36.62,-121.92,75.00200000000008,1.5
Edea,75,CM,1570415312,94,3.8,10.13,75.2,1
Harsin,0,IR,1570415312,32,34.27,47.59,57.2,2.1
Flagstaff,1,US,1570415014,17,35.2,-111.65,71.6,3.6
Sao Felix do Xingu,0,BR,1570415312,83,-6.64,-51.99,72.71600000000001,1.05
San Felipe,65,CL,1570415313,53,-32.75,-70.73,46.36400000000003,0.516
Los Llanos de Aridane,90,ES,1570415313,64,28.66,-17.92,73.4,6.7
Saint George,75,GR,1570415091,87,39.45,22.34,60.8,0.84
Minna,40,NG,1570415313,94,9.62,6.55,71.6,5.1
Salalah,75,OM,1570415314,83,17.01,54.1,78.8,1
Vikhorevka,75,RU,1570415314,89,56.12,101.17,33.8,3
Vardo,75,US,1570415314,82,39.62,-77.74,68.0,4.6
Srivardhan,0,IN,1570415314,80,18.03,73.02,80.61800000000008,1.404
Yeppoon,0,AU,1570415314,29,-23.13,150.74,91.4,2.6
Port Hardy,90,CA,1570415314,93,50.7,-127.42,50.0,6.2
Saint Anthony,1,US,1570415315,56,43.97,-111.68,44.6,1.94
College,90,US,1570415315,86,64.86,-147.8,35.6,6.7
Togane,75,JP,1570415315,73,35.55,140.37,75.99199999999999,3.6
Khani,75,GE,1570415315,87,41.96,42.96,59.0,5.1
Caravelas,0,BR,1570415276,86,-17.73,-39.27,72.93200000000002,3.43
Saint-Augustin,90,CA,1570415316,93,45.63,-73.98,62.00600000000003,1.5
Egvekinot,100,RU,1570415316,84,66.32,-179.17,23.77400000000001,1.67
Gamba,0,CN,1570415316,55,28.28,88.52,38.174000000000014,1.93
Vityazevo,0,RU,1570415316,87,44.99,37.26,48.2,1
Byron Bay,0,AU,1570415103,66,-28.65,153.62,98.00600000000003,6.2
Churapcha,100,RU,1570415317,46,62,132.43,32.41400000000003,3
Chiniot,7,PK,1570415312,43,31.72,72.98,77.77400000000002,0.13
Rujewa,0,TZ,1570415317,68,-8.7,34.38,67.37000000000006,3.84
Oriximina,84,BR,1570415317,63,-1.77,-55.87,82.50800000000001,2.58
Nanortalik,0,GL,1570415317,79,60.14,-45.24,40.13600000000007,0.42
Tokmak,0,UA,1570415318,86,47.26,35.7,41.018000000000086,1.7
Koundara,100,GN,1570415318,94,12.49,-13.3,74.28200000000001,1.7
Birao,99,CF,1570415318,93,10.3,22.78,71.07800000000006,0.88
Inta,100,RU,1570415318,92,66.04,60.13,31.838000000000044,5.15
Tuatapere,100,NZ,1570415318,47,-46.13,167.69,62.99600000000005,3.58
Yining,0,CN,1570415319,49,29.04,114.56,79.95200000000008,1.08
Bandarbeyla,10,SO,1570415319,79,9.49,50.81,76.19000000000003,3.59
Koulamoutou,100,GA,1570415319,99,-1.13,12.47,69.29600000000005,0.94
Luganville,75,VU,1570415319,78,-15.51,167.18,80.6,4.1
Norsup,75,VU,1570415319,78,-16.07,167.38,80.6,4.1
Rosa Zarate,78,EC,1570415320,92,0.33,-79.47,70.592,1.18
Nacala,25,MZ,1570415320,96,-14.56,40.69,70.64600000000004,1.756
Marystown,36,CA,1570415320,78,47.17,-55.16,44.11400000000003,3.64
Guerrero Negro,0,MX,1570415320,77,27.97,-114.04,69.62000000000006,6.57
Jijiga,68,ET,1570415292,77,9.35,42.8,55.67000000000006,0.36
Bagdarin,0,RU,1570415321,37,54.44,113.59,31.694000000000074,5.35
Berlevag,99,NO,1570415184,80,70.86,29.09,42.458000000000006,4.32
Pochutla,75,MX,1570415321,88,15.74,-96.47,84.2,5.1
Zhigalovo,98,RU,1570415321,75,54.81,105.15,34.05200000000008,2.47
Chemodanovka,100,RU,1570415321,97,54.09,40.18,35.00600000000003,1.79
Encheng,40,CN,1570415322,62,22.74,107.09,80.31200000000005,3.69
Omboue,100,GA,1570415322,86,-1.57,9.26,77.84600000000005,5.94
Namibe,98,AO,1570415322,76,-15.19,12.15,67.94600000000005,3.93
Hovd,75,NO,1570415322,86,63.83,10.7,46.99400000000007,1
Mount Darwin,0,ZW,1570415322,55,-16.77,31.58,62.51000000000008,0.78
Lindi,20,TZ,1570415323,94,-10,39.71,71.6,2.6
Lagunas,96,PE,1570415323,90,-5.23,-75.68,73.27400000000002,1.29
Bafoulabe,100,ML,1570415323,72,13.81,-10.83,78.22400000000002,2.83
Shamary,100,RU,1570415323,69,57.34,58.22,42.38600000000007,2.04
Vila Franca do Campo,75,PT,1570415324,94,37.72,-25.43,75.00200000000008,5.1
Whitehorse,75,CA,1570415054,80,60.72,-135.06,30.2,3.1
Surovatikha,90,RU,1570415324,93,55.77,43.9,46.99400000000007,4
Grand Gaube,40,MU,1570415324,83,-20.01,57.66,73.99400000000007,5.7
Champerico,75,MX,1570415324,73,16.38,-93.6,77.0,6.7
Vila Velha,75,BR,1570415325,74,-3.71,-38.6,80.6,6.2
Belaya Gora,100,RU,1570415325,73,68.54,146.19,23.882000000000016,2.547
Coahuayana,4,MX,1570415325,95,18.62,-100.35,71.6,0.88
Vavozh,85,RU,1570415325,70,56.77,51.93,44.07800000000007,3.56
Kidal,39,ML,1570415325,31,18.44,1.41,87.06200000000005,3.38
Nokaneng,64,BW,1570415325,19,-19.66,22.19,64.77800000000006,1.53
Wabrzezno,87,PL,1570415326,100,53.28,18.95,37.004000000000055,1.5
Scarborough,69,GB,1570415326,100,54.28,-0.41,51.008,3.1
Saryozek,0,KZ,1570415150,29,44.36,77.98,64.20200000000008,1.01
Jacareacanga,1,BR,1570415326,75,-6.22,-57.76,76.26200000000006,0.75
Kyshtovka,71,RU,1570415327,75,56.56,76.62,48.21800000000009,2.231
Sinnamary,0,GF,1570415327,82,5.38,-52.96,81.55400000000006,5.89
Date,75,JP,1570415327,87,42.53,140.93,57.2,6.7
Punto Fijo,0,VE,1570415327,77,11.69,-70.21,84.00200000000008,11.59
Taoudenni,0,ML,1570415223,11,22.68,-3.98,81.21200000000006,3.06
Moron,100,HT,1570415327,72,18.56,-74.26,79.934,2.058
Bosaso,0,SO,1570415328,76,11.28,49.18,84.92000000000006,3.589
Togur,99,RU,1570415328,91,58.36,82.83,48.29000000000002,2.088
Ozimek,0,PL,1570415328,92,50.68,18.21,33.998000000000026,0.5
Golyshmanovo,40,RU,1570415328,71,56.4,68.37,44.87000000000006,2.03
Talnakh,90,RU,1570415329,96,69.49,88.39,32.0,4
Paengaroa,75,NZ,1570415329,69,-37.83,176.42,66.99199999999999,0.45
Zhangye,40,CN,1570415329,46,38.94,100.46,58.02800000000006,0.729
Oksbol,0,DK,1570415329,73,55.63,8.29,37.4,1.5
Kawalu,84,ID,1570415329,57,-7.38,108.21,80.15,2.8
Jabinyanah,0,TN,1570415330,82,35.03,10.91,68.0,2.6
Xiongyue,22,CN,1570415330,46,40.18,122.12,64.61600000000001,7.602
Bambous Virieux,40,MU,1570415330,83,-20.34,57.76,73.99400000000007,5.7
Weihe,95,CN,1570415330,56,32.99,105.33,57.812000000000054,2
Keetmanshoop,18,NA,1570415331,43,-26.57,18.15,55.4,2.1
Hwange,0,ZW,1570415331,21,-18.35,26.5,67.83800000000005,1.976
Banda Aceh,86,ID,1570415331,80,5.56,95.32,80.96000000000008,1.248
Biak,55,ID,1570415225,70,-0.91,122.88,73.67000000000006,2.36
Poum,20,MK,1570415331,75,41.28,20.71,46.4,4.1
Nalut,44,LY,1570415331,38,31.86,10.98,66.61400000000003,0.824
Kuybyshevo,85,UA,1570415332,58,44.63,33.86,56.21000000000008,4.72
Turayf,0,SA,1570415332,47,31.68,38.65,59.0,1.5
Tabou,63,CI,1570415332,93,4.42,-7.36,74.3,1.62
Ngunguru,98,NZ,1570415332,91,-35.62,174.5,62.00600000000003,4.3
Baykit,100,RU,1570415332,99,61.68,96.39,38.69600000000005,2.32
Severo-Kurilsk,0,RU,1570415089,81,50.68,156.12,45.91400000000003,8.47
Aloleng,0,PH,1570415333,67,16.13,119.78,82.77800000000006,1.42
Murgab,0,TM,1570415333,58,37.5,61.97,53.6,3.1
Tautira,40,PF,1570415333,65,-17.73,-149.15,82.4,5.1
Kahului,20,US,1570415187,58,20.89,-156.47,84.2,4.6
Meget,40,RU,1570415334,86,52.42,104.06,39.2,5
Hirara,20,JP,1570415334,70,24.8,125.28,84.2,5.1
Kunda,100,EE,1570415334,84,59.5,26.52,39.95600000000003,3
Coquimbo,0,CL,1570415334,76,-29.95,-71.34,55.4,2.6
Souillac,96,FR,1570415334,93,45.6,-0.6,53.00600000000003,3.37
Bosobolo,94,CD,1570415335,96,4.19,19.88,69.85400000000006,0.71
Katherine,24,AU,1570415335,29,-14.47,132.26,91.4,3.6
Lodja,69,CD,1570415335,99,-3.52,23.6,69.24199999999999,0.74
Bogorodskoye,100,RU,1570415335,61,52.37,140.44,48.272000000000034,6.47
Atambua,8,ID,1570415335,64,-9.11,124.89,79.28600000000007,4.04
Leningradskiy,48,RU,1570415336,74,69.38,178.42,24.583999999999993,2.02
Puri,59,ID,1570415336,37,-7.54,112.45,93.2,5.85
Sapa,20,PH,1570415336,55,14.32,120.76,91.00400000000005,4.6
Zhigansk,100,RU,1570415336,94,66.77,123.37,29.156000000000027,3.88
Maniitsoq,0,GL,1570415140,55,65.42,-52.9,34.88000000000004,2.2
Ambagarh Chauki,100,IN,1570415336,79,20.78,80.75,78.11600000000001,2.856
Noumea,0,NC,1570415337,42,-22.28,166.46,84.2,5.1
Alekseyevsk,100,RU,1570415337,72,57.84,108.35,33.872000000000035,5.26
Anadyr,40,RU,1570415337,80,64.73,177.51,33.8,7
Ambon,0,FR,1570415337,87,47.55,-2.56,55.99400000000007,1.5
Kihei,20,US,1570415337,58,20.76,-156.45,84.2,4.6
Primorsk,61,RU,1570415338,87,60.37,28.62,28.994000000000074,3.654
Dickinson,1,US,1570415302,75,46.88,-102.79,46.004000000000055,3.1
Nhulunbuy,20,AU,1570415338,54,-12.18,136.78,84.2,5.1
Xanlar,75,AZ,1570415338,52,40.56,46.33,66.2,7.2
Machaneng,0,BW,1570415339,34,-23.19,27.49,63.788000000000046,3.25
Puerto Escondido,75,MX,1570415339,70,15.86,-97.07,84.2,1.14
Trinidad,100,BO,1570415339,96,-14.83,-64.9,62.07800000000007,3.02
Bandar-e Lengeh,0,IR,1570415339,70,26.56,54.88,86.0,7.2
Santa Rosa,100,AR,1570415339,25,-36.62,-64.29,63.03200000000002,2.88
Richards Bay,75,ZA,1570415340,88,-28.77,32.06,69.49400000000007,7.53
Montepuez,97,MZ,1570415340,86,-13.13,39,69.58399999999999,1.776
Waipawa,0,NZ,1570415340,51,-39.94,176.59,68.0,4.02
Poya,0,NC,1570415340,77,-21.35,165.16,69.96200000000006,6.07
Olinda,90,AU,1570415340,54,-37.84,145.39,62.99600000000005,4.6
Saquena,100,PE,1570415341,96,-4.67,-73.52,73.65200000000007,0.52
Tabas,0,IR,1570415341,18,33.6,56.92,64.4,1
Bathsheba,75,BB,1570415148,88,13.22,-59.52,78.8,10.8
Kilindoni,0,TZ,1570415341,76,-7.91,39.67,78.51200000000006,2.48
Redmond,75,US,1570415162,66,47.67,-122.12,55.99400000000007,3.1
Anchorage,90,US,1570415105,60,61.22,-149.89,48.2,1.5
Avera,75,US,1570415342,73,33.19,-82.53,75.99199999999999,2.1
Tessalit,87,ML,1570415342,11,20.2,1.01,86.48600000000008,3.78
Cedral,3,MX,1570415342,60,23.82,-100.72,68.54000000000002,6.18
Pervomayskoye,46,RU,1570415342,82,57.07,86.23,52.610000000000085,3.86
Uhlove,85,UA,1570415342,58,44.82,33.6,56.21000000000008,4.72
Mbandaka,100,CD,1570415342,98,0.05,18.26,71.25800000000001,0.8
Redlands,5,US,1570415124,20,34.06,-117.19,84.2,2.1
Perth,20,AU,1570415343,48,-31.95,115.86,69.99800000000002,6.2
Kununurra,0,AU,1570415343,34,-15.77,128.74,93.2,2.6
Haapiti,40,PF,1570415343,65,-17.57,-149.87,82.4,5.1
Sorong,91,ID,1570415344,83,-0.86,131.25,82.58000000000004,2.66
San Angelo,75,US,1570415113,73,31.46,-100.44,73.4,4.1
Annau,0,TM,1570415344,47,37.89,58.52,55.4,2.1
Port Hedland,0,AU,1570415344,43,-20.31,118.58,91.4,6.2
Peniche,0,PT,1570415344,82,39.36,-9.38,62.6,5.1
Broken Hill,11,AU,1570415345,37,-31.97,141.45,71.6,5.7
Northam,20,AU,1570415345,42,-31.65,116.67,66.2,6.2
Kassala,0,SD,1570415345,63,15.45,36.38,81.842,4.53
Kichmengskiy Gorodok,100,RU,1570415345,98,59.99,45.81,36.37400000000001,3.23
Havoysund,75,NO,1570415345,86,71,24.66,39.2,6.2
Mayya,0,RU,1570415346,54,61.74,130.28,32.0,3
Hobyo,35,SO,1570415118,71,5.35,48.53,79.484,3.01
Deer Lake,40,CA,1570415346,86,49.18,-57.43,44.00600000000003,2.6
Swan Hill,99,AU,1570415346,37,-35.34,143.56,68.05400000000006,4.93
Muisne,100,EC,1570415346,80,0.61,-80.02,74.48000000000005,2.668
Puerto Baquerizo Moreno,98,EC,1570415346,84,-0.9,-89.6,67.51400000000004,5.28
Kijang,90,KR,1570415347,77,35.24,129.21,64.4,3.6
Shasta Lake,1,US,1570415347,19,40.68,-122.36,80.6,1.827
Leh,99,IN,1570415347,56,34.16,77.58,30.704000000000054,3.38
Dicabisagan,14,PH,1570415347,73,17.08,122.42,83.46200000000006,2.55
Roebourne,10,AU,1570415347,7,-20.77,117.15,103.85600000000002,5.62
Namatanai,4,PG,1570415348,77,-3.66,152.44,83.75,5.427
Shu,100,KZ,1570415348,31,43.6,73.76,62.780000000000044,1.05
Misratah,0,LY,1570415348,63,32.38,15.09,75.434,3.15
Thunder Bay,20,CA,1570415289,81,48.41,-89.26,48.2,4.6
Omurtag,14,BG,1570415349,100,43.1,26.42,39.2,1
Rosarito,40,CO,1570415349,88,4.91,-75.23,75.2,1
Lensk,100,RU,1570415349,85,60.71,114.91,31.783999999999992,5.59
Touros,75,BR,1570415148,78,-5.2,-35.46,77.0,4.1
Jiuquan,0,CN,1570415349,40,39.73,98.49,55.05800000000001,4.74
Warri,99,NG,1570415349,91,5.52,5.75,76.06400000000004,2.16
Mitu,0,IR,1570415350,64,36.2,46.09,48.21800000000009,2.08
Roald,9,NO,1570415285,86,62.58,6.12,37.99400000000007,3.6
Laguna,40,BZ,1570415350,83,16.17,-88.94,80.6,0.04
Ilhabela,92,BR,1570415350,92,-23.78,-45.36,70.88000000000004,4.27
Narasannapeta,7,IN,1570415350,76,18.42,84.04,83.53399999999999,1.87
Riyadh,54,SA,1570415351,34,24.63,46.72,80.6,1.5
Maragogi,14,BR,1570415128,94,-9.01,-35.22,68.792,1.06
Lively,90,US,1570415351,45,33.6,-99.18,66.2,8.7
Port Blair,20,IN,1570415351,79,11.67,92.75,84.2,1
Pascagoula,1,US,1570415351,88,30.37,-88.56,80.6,1.61
Maloy,98,ID,1570415352,74,1,118.1,85.04600000000005,1.28
Kikwit,100,CD,1570415352,93,-5.04,18.82,71.67200000000004,0.55
Ankazobe,20,MG,1570415352,93,-18.32,47.12,55.4,3.1
Nandgaon,1,IN,1570415352,71,20.31,74.66,78.62000000000006,1.517
Qinggang,0,CN,1570415352,58,28.25,121.28,84.00200000000008,3.112
Kedougou,100,SN,1570415352,82,12.56,-12.19,74.46200000000006,1.45
Pacifica,1,US,1570415353,48,37.61,-122.49,75.00200000000008,1.5
Dharan,47,NP,1570415168,79,26.81,87.28,71.87000000000006,1.24
Bayir,0,TR,1570415353,93,37.27,28.22,55.4,1.5
Rudsar,0,IR,1570415353,82,37.14,50.29,68.0,2.1
Odienne,100,CI,1570415353,97,9.51,-7.57,70.64600000000004,3.06
Marsh Harbour,100,BS,1570415354,81,26.54,-77.06,80.83399999999999,8.39
Nishihara,75,JP,1570415354,64,35.74,139.53,77.0,3.6
Cape Coast,72,GH,1570415354,90,5.11,-1.24,75.308,3.52
Kuching,75,MY,1570415354,83,1.56,110.34,82.4,1
Dzilam Gonzalez,100,MX,1570415354,81,21.28,-88.93,84.00200000000008,2.68
Ploufragan,100,FR,1570415355,93,48.49,-2.79,53.00600000000003,2.6
Manicore,8,BR,1570415355,69,-5.81,-61.3,77.86400000000003,1.07
Granollers,100,ES,1570415355,88,41.61,2.29,66.99199999999999,1.5
Yar-Sale,0,RU,1570415355,76,66.83,70.83,34.16000000000008,9.49
Kiunga,100,PG,1570415356,64,-6.12,141.3,86.03600000000007,1.224
Sorland,100,NO,1570415356,71,67.67,12.69,46.346000000000046,5.57
Aguimes,75,ES,1570415356,73,27.91,-15.45,75.00200000000008,9.3
Geraldton,75,CA,1570415356,100,49.72,-86.95,44.6,4.6
Tiznit,0,MA,1570415356,77,29.7,-9.73,69.42200000000004,1.87
Houma,41,CN,1570415357,71,35.63,111.36,59.09000000000002,2.54
Chimbarongo,100,CL,1570415357,55,-34.71,-71.04,60.8,4.1
Ust-Tsilma,100,RU,1570415357,95,65.44,52.15,26.63600000000007,0.25
Angahuan,9,MX,1570415357,84,19.55,-102.23,60.008,0.45
Hami,0,CN,1570415357,20,42.84,93.51,66.092,3.176
Eureka,1,US,1570415357,81,40.8,-124.16,59.0,2.1
Bull Savanna,99,JM,1570415358,79,17.89,-77.59,82.02200000000003,2.9
Aswan,0,EG,1570415201,21,24.09,32.9,82.4,3.6
Ribeira do Pombal,18,BR,1570415358,97,-10.84,-38.54,67.96400000000003,1.851
Tocopilla,67,CL,1570415358,83,-22.09,-70.2,57.77600000000009,2.03
Devonport,97,AU,1570415358,48,-41.18,146.36,57.992,1.79
Batemans Bay,76,AU,1570415359,44,-35.71,150.18,71.99600000000005,3.58
Te Anau,100,NZ,1570415226,80,-45.41,167.72,44.90600000000003,3.69
Raudeberg,0,NO,1570415359,75,61.99,5.14,42.8,3.6
Itacare,40,BR,1570415359,78,-14.28,-39,78.8,5.1
Rocha,0,UY,1570415359,96,-34.48,-54.34,47.01200000000006,3.04
Brae,100,GB,1570415113,81,60.4,-1.35,51.8,10.3
The Valley,40,AI,1570415360,74,18.22,-63.06,84.2,5.1
Lubango,98,AO,1570415360,54,-14.92,13.49,71.16800000000009,0.71
Solano,100,CO,1570415082,98,0.7,-75.25,72.55400000000006,0.91
Boyuibe,100,BO,1570415360,85,-20.43,-63.28,53.65400000000005,0.86
Darnetal,75,FR,1570415360,100,49.45,1.15,53.00600000000003,2.6
Mount Gambier,90,AU,1570415361,58,-37.83,140.78,59.0,7.2
