City,Cloudiness,Country,Date,Humidity,Lat,Lng,Max Temp,Wind Speed
Jamestown,100,AU,1570418543,69,-33.21,138.6,57.74000000000002,5.58
Kapaa,90,US,1570418543,94,22.08,-159.32,82.4,5.1
Ushuaia,40,AR,1570418543,80,-54.81,-68.31,35.6,5.7
Tautira,75,PF,1570418543,74,-17.73,-149.15,78.8,5.7
Busselton,3,AU,1570418475,62,-33.64,115.35,64.00400000000005,0.89
Kavieng,1,PG,1570418543,75,-2.57,150.8,83.58800000000005,6.3
Alindao,100,CF,1570418544,99,5.04,21.21,68.52200000000003,1.41
Tiksi,91,RU,1570418544,92,71.64,128.87,24.422000000000036,2.37
Hermanus,32,ZA,1570418511,90,-34.42,19.24,57.00200000000008,1.34
Russell,1,US,1570418544,81,38.9,-98.86,53.00600000000003,2.6
Jabinyanah,0,TN,1570418545,82,35.03,10.91,68.0,2.6
Jambi,89,ID,1570418545,63,-1.6,103.62,84.68600000000006,1.94
Port Alfred,100,ZA,1570418515,93,-33.59,26.89,64.00400000000005,4.2
Gavle,100,SE,1570418545,76,60.67,17.14,33.008,0.89
Bluff,0,AU,1570418545,17,-23.58,149.07,94.17200000000004,2.77
Dikson,55,RU,1570418546,79,73.51,80.55,23.57600000000009,11.68
Monrovia,75,LR,1570418546,100,6.33,-10.8,75.2,2.83
Ixtapa,75,MX,1570418546,83,20.71,-105.21,84.99199999999999,1.5
Tasiilaq,79,GL,1570418546,93,65.61,-37.64,39.2,1.3
Tawau,75,MY,1570418546,59,4.26,117.89,89.6,3.6
Rikitea,100,PF,1570418547,86,-23.12,-134.97,73.74199999999999,5.06
Vao,100,EE,1570418547,85,59.1,26.19,39.43399999999999,2.75
Puerto Ayora,8,EC,1570418547,96,-0.74,-90.35,64.99400000000007,1.79
Tadine,0,NC,1570418547,78,-21.55,167.88,72.33800000000005,6.62
Yellowknife,90,CA,1570418547,93,62.45,-114.38,35.6,7.7
Oga,20,IT,1570418548,100,46.46,10.35,37.4,1
Suzun,0,RU,1570418548,67,53.78,82.32,56.19199999999999,1.18
Boguchany,100,RU,1570418548,96,58.38,97.46,42.47600000000009,1.92
Castro,40,CL,1570418472,81,-42.48,-73.76,44.6,3.6
Klaksvik,80,FO,1570418548,87,62.23,-6.59,50.0,15.4
Waipawa,0,NZ,1570418549,55,-39.94,176.59,66.00200000000008,2.24
Belturbet,100,GB,1570418549,89,54.1,-7.44,51.998000000000026,5.36
East London,75,ZA,1570418372,100,-33.02,27.91,62.6,5.7
Souillac,0,FR,1570418549,93,45.6,-0.6,51.998000000000026,3.37
Chuy,0,UY,1570418549,90,-33.69,-53.46,54.95,3.71
San-Pedro,86,CI,1570418550,99,4.75,-6.64,69.458,0.94
Meulaboh,40,ID,1570418550,77,4.14,96.13,79.73600000000008,2.21
Den Helder,0,NL,1570418550,87,52.96,4.76,46.4,6.7
Vaini,75,IN,1570418550,83,15.34,74.49,73.4,1.06
Pevek,100,RU,1570418550,78,69.7,170.27,28.88600000000007,6.09
San Quintin,0,PH,1570418551,61,17.54,120.52,86.21600000000001,1.59
Talara,0,PE,1570418551,88,-4.58,-81.27,63.788000000000046,9.96
Idritsa,25,RU,1570418551,97,56.33,28.9,29.083999999999993,1.6
Mataura,90,NZ,1570418511,47,-46.19,168.86,62.99600000000005,4.47
Prattville,1,US,1570418551,73,32.46,-86.46,78.99800000000002,2.89
Qaanaaq,100,GL,1570418552,77,77.48,-69.36,19.868000000000087,7.67
Hithadhoo,81,MV,1570418467,77,-0.6,73.08,81.66200000000006,6.27
Punta Arenas,20,CL,1570418552,55,-53.16,-70.91,39.2,4.6
Torbay,20,CA,1570418552,86,47.66,-52.73,44.99600000000005,3.1
Butaritari,0,KI,1570418552,63,3.07,172.79,84.65,1.21
Bambous Virieux,40,MU,1570418553,88,-20.34,57.76,75.00200000000008,6.2
Sinnamary,0,GF,1570418553,82,5.38,-52.96,81.55400000000006,5.89
Albany,90,US,1570418463,82,42.65,-73.75,64.99400000000007,4.6
Aranos,0,NA,1570418553,59,-24.14,19.11,63.57200000000004,2.91
Belaya Gora,100,RU,1570418278,73,68.54,146.19,23.882000000000016,2.55
Kaitangata,98,NZ,1570418512,67,-46.28,169.85,57.00200000000008,2.93
Trelew,10,AR,1570418554,41,-43.25,-65.31,52.34000000000002,15.88
Coruripe,0,BR,1570418554,95,-10.12,-36.18,68.09000000000002,3.17
Hobart,75,AU,1570418454,41,-42.88,147.33,59.0,5.1
Hervey Bay,0,AU,1570418554,58,-25.3,152.85,82.4,7.2
Atar,0,MR,1570418554,10,20.52,-13.05,89.67200000000004,5.32
Bredasdorp,0,ZA,1570418478,82,-34.53,20.04,57.2,1.5
New Norfolk,75,AU,1570418555,41,-42.78,147.06,59.0,5.1
Barrow,97,AR,1570418555,40,-38.31,-60.23,61.34000000000002,9.47
Nicoya,90,CR,1570418555,94,10.15,-85.45,73.4,2.6
Katsuura,20,JP,1570418456,57,33.93,134.5,78.00800000000001,2.1
Verkhoyansk,72,RU,1570418555,47,67.55,133.39,22.298000000000023,1.03
Thompson,75,CA,1570418509,86,55.74,-97.86,37.4,3.6
Khatanga,0,RU,1570418556,87,71.98,102.47,22.928000000000065,4.04
Owensboro,90,US,1570418378,87,37.77,-87.11,62.00600000000003,3.1
Banjar,95,ID,1570418556,54,-7.37,108.54,84.59600000000005,2.35
Basco,1,US,1570418556,87,40.33,-91.2,55.99400000000007,3.1
Carnarvon,3,ZA,1570418557,49,-30.97,22.13,50.03600000000007,7.13
Bull Savanna,99,JM,1570418557,79,17.89,-77.59,82.02200000000003,2.9
Lagoa,0,PT,1570418557,77,37.14,-8.45,68.0,2.1
Banting,75,MY,1570418557,59,2.82,101.5,89.6,2.6
Sauda,0,NO,1570418557,84,59.65,6.35,35.99600000000005,0.89
Tura,100,RU,1570418558,93,64.27,100.22,27.248000000000026,2.57
Comodoro Rivadavia,75,AR,1570418558,66,-45.87,-67.48,50.0,10.3
Lucapa,17,AO,1570418558,87,-8.42,20.74,67.73000000000005,1.13
Igarka,88,RU,1570418558,85,67.47,86.57,32.378000000000064,6.04
Eunice,1,US,1570418559,94,30.49,-92.42,75.99199999999999,2.61
Avarua,100,CK,1570418549,56,-21.21,-159.78,71.6,5.7
Avera,1,US,1570418559,78,33.19,-82.53,75.2,2.6
Freeport,84,BS,1570418559,80,26.54,-78.7,80.90600000000003,9.26
Jega,14,NG,1570418559,77,12.22,4.38,77.64800000000002,2.88
Zhezkazgan,40,KZ,1570418559,26,47.8,67.71,48.2,3
Upernavik,0,GL,1570418560,76,72.79,-56.15,28.418000000000085,2.02
Abeche,5,TD,1570418560,67,13.83,20.83,77.97200000000004,1.96
Onguday,0,RU,1570418560,59,50.75,86.14,45.248000000000026,1.6
Hilo,20,US,1570418560,54,19.71,-155.08,82.4,1.5
Dzaoudzi,0,YT,1570418560,88,-12.79,45.27,77.0,2.6
Kulhudhuffushi,99,MV,1570418561,78,6.62,73.07,81.80600000000003,4.37
Ribeira Grande,69,PT,1570418561,94,38.52,-28.7,68.64800000000002,9.85
Wuda,27,CN,1570418561,18,39.5,106.72,54.75200000000008,1.8
Nouadhibou,0,MR,1570418561,88,20.93,-17.03,66.2,5.7
Necochea,67,AR,1570418562,56,-38.55,-58.74,60.998000000000026,8.94
Okakarara,0,NA,1570418562,21,-20.59,17.46,63.5,3.92
Wasilla,90,US,1570418562,80,61.58,-149.44,46.4,0.72
Xiamen,75,CN,1570418562,61,24.46,118.07,82.4,4
Luba,0,PH,1570418562,61,17.32,120.7,86.21600000000001,1.59
Mahebourg,40,MU,1570418563,88,-20.41,57.7,75.00200000000008,6.2
Mahibadhoo,93,MV,1570418563,69,3.78,72.97,82.68800000000005,1.27
Lusambo,100,CD,1570418563,97,-4.97,23.44,68.05400000000006,0.37
Sabang,16,PH,1570418563,79,13.8,121.11,84.99199999999999,2.24
Clyde River,1,CA,1570418563,92,70.47,-68.59,19.4,2.1
Pontes e Lacerda,64,BR,1570418564,84,-15.23,-59.33,66.93800000000005,0.18
Auki,0,NG,1570418564,85,12.18,6.51,72.89600000000004,2.72
Dingle,63,PH,1570418564,72,11,122.67,84.66800000000009,3.81
Luderitz,0,NA,1570418564,71,-26.65,15.16,57.2,5.7
Atuona,0,PF,1570418481,68,-9.8,-139.03,80.33000000000004,6.14
Georgetown,20,GY,1570418565,100,6.8,-58.16,75.2,2.1
Saskylakh,90,RU,1570418565,95,71.97,114.09,18.59000000000002,2.87
Port Elizabeth,90,US,1570418531,68,39.31,-74.98,71.99600000000005,5.58
Moosomin,0,CA,1570418565,66,50.14,-101.67,44.852000000000075,4.28
El Tigre,0,VE,1570418566,84,8.89,-64.25,75.63200000000002,5.73
Geraldton,40,CA,1570418566,93,49.72,-86.95,44.6,5.7
Roald,9,NO,1570418566,86,62.58,6.12,37.4,4.6
Anadyr,90,RU,1570418566,80,64.73,177.51,33.8,10
Darhan,51,MN,1570418566,55,49.49,105.92,38.24600000000005,2.85
Lompoc,1,US,1570418567,42,34.64,-120.46,66.2,1.3
San Jose,90,HN,1570418484,100,14.25,-87.96,69.8,4.6
Bilecik,0,TR,1570418466,93,40.14,29.98,42.8,2.25
Trincomalee,54,LK,1570418567,60,8.58,81.23,84.48800000000004,1.09
Lebu,20,ET,1570418541,81,8.96,38.73,53.6,2.1
Filingue,0,NE,1570418567,49,14.35,3.32,84.29000000000002,4.52
Hyeres,0,FR,1570418568,42,43.12,6.14,64.4,11.3
Marsh Harbour,100,BS,1570418568,81,26.54,-77.06,80.83399999999999,8.39
Amuntai,100,ID,1570418568,44,-2.42,115.25,93.95600000000003,1.31
Poum,40,MK,1570418568,75,41.28,20.71,44.6,4.1
Beloha,0,MG,1570418569,65,-25.17,45.06,70.10600000000002,3.93
Hofn,100,IS,1570418488,99,64.25,-15.21,37.99400000000007,5.96
Aklavik,75,CA,1570418569,67,68.22,-135.01,32.0,3.6
Cidreira,91,BR,1570418569,87,-30.17,-50.22,58.64000000000002,2.58
Beckley,90,US,1570418569,82,37.78,-81.19,68.0,3.6
Nemuro,75,JP,1570418569,62,43.32,145.57,59.0,4.1
Mar del Plata,80,AR,1570418570,66,-46.43,-67.52,47.84000000000002,11.19
Esperance,75,AU,1570418570,82,-33.86,121.89,59.0,5.1
Lavrentiya,63,RU,1570418570,90,65.58,-170.99,27.662000000000056,0.86
Sao Filipe,100,CV,1570418570,87,14.9,-24.5,78.98000000000005,6.81
Ankang,100,CN,1570418571,97,32.73,108.99,51.944000000000074,0.52
Baniyas,40,SY,1570418571,61,35.18,35.94,77.0,3.1
Alofi,88,NU,1570418571,61,-19.06,-169.92,78.8,8.2
Mogadishu,59,SO,1570418313,86,2.04,45.34,76.78399999999999,3.91
Mbanza-Ngungu,100,CD,1570418572,91,-5.25,14.87,70.97000000000006,3.27
Kohima,13,IN,1570418572,94,25.66,94.1,67.208,0.49
Severo-Kurilsk,0,RU,1570418572,81,50.68,156.12,45.91400000000003,8.47
Solnechnyy,100,RU,1570418572,45,50.72,136.64,56.06600000000001,4.48
Sorland,75,NO,1570418572,86,67.67,12.69,41.0,4.1
Cape Town,20,ZA,1570418509,93,-33.93,18.42,59.0,2.6
Gat,84,SN,1570418573,94,14.69,-16.54,80.6,6.01
Leshukonskoye,100,RU,1570418573,95,64.9,45.76,27.05,1.39
Pochutla,75,MX,1570418573,88,15.74,-96.47,77.0,1.39
Dubbo,99,AU,1570418573,19,-32.25,148.6,87.8,6.7
Labuhan,100,ID,1570418574,49,-2.54,115.51,91.00400000000005,0.98
Margate,75,AU,1570418574,41,-43.03,147.26,59.0,5.1
Olga,1,US,1570418574,56,34.11,-118.17,75.2,1.09
Tuktoyaktuk,90,CA,1570418510,93,69.44,-133.03,32.0,6.2
Vila Franca do Campo,75,PT,1570418574,94,37.72,-25.43,75.00200000000008,5.7
Puerto Carreno,0,CO,1570418439,74,6.19,-67.49,82.4,1.08
Makakilo City,90,US,1570418575,65,21.35,-158.09,82.4,1.5
Norman Wells,75,CA,1570418575,64,65.28,-126.83,32.0,4.6
Prachuap Khiri Khan,92,TH,1570418575,73,11.81,99.79,80.07800000000006,1.53
Pombas,71,BR,1570418575,76,-15.9,-54.74,69.89000000000001,2.27
Nome,1,US,1570418576,83,30.04,-94.42,78.99800000000002,1.02
Kodiak,1,US,1570418576,87,39.95,-94.76,51.998000000000026,1.67
Fortuna,1,US,1570418478,87,40.6,-124.16,57.992,1.5
Saint-Pierre,75,FR,1570418576,100,48.95,4.24,53.6,5.7
Chenzhou,0,CN,1570418576,43,25.81,113.03,76.33399999999999,2.28
La Asuncion,0,AR,1570418577,70,-26.05,-65.39,50.378000000000064,2.8
Caravelas,0,BR,1570418577,86,-17.73,-39.27,72.93200000000002,3.43
Goundam,100,ML,1570418577,35,16.42,-3.66,87.674,2.84
College,90,US,1570418497,86,64.86,-147.8,33.8,4.1
Presidencia Roque Saenz Pena,0,AR,1570418577,76,-26.79,-60.44,58.604000000000056,1.57
Frontera,40,MX,1570418349,100,18.53,-92.64,75.2,3.33
Takoradi,61,GH,1570418578,95,4.89,-1.75,72.95,1.47
Grindavik,0,IS,1570418578,81,63.84,-22.43,51.8,7.2
Laguna,40,BZ,1570418578,94,16.17,-88.94,78.8,0.04
Kahului,40,US,1570418466,61,20.89,-156.47,82.4,4.6
Novominskaya,32,RU,1570418579,66,46.32,38.96,48.254000000000055,3.45
Arraial do Cabo,80,BR,1570418579,89,-22.97,-42.02,70.98800000000004,2.42
Nanortalik,0,GL,1570418579,79,60.14,-45.24,40.13600000000007,0.42
Chokurdakh,100,RU,1570418579,86,70.62,147.9,21.038000000000046,2.84
Chicama,75,PE,1570418580,87,-7.84,-79.15,60.8,4.1
Srednekolymsk,0,RU,1570418580,77,67.46,153.71,20.768000000000086,3.14
Kudahuvadhoo,65,MV,1570418580,75,2.67,72.89,80.87000000000006,1.13
Goderich,87,CA,1570418580,80,43.74,-81.71,59.0,10.03
Faanui,100,PF,1570418457,85,-16.48,-151.75,77.12600000000009,8.09
Inuvik,75,CA,1570418581,80,68.36,-133.71,32.0,3.6
Swellendam,0,ZA,1570418581,82,-34.02,20.44,57.2,1.5
Jacareacanga,1,BR,1570418581,75,-6.22,-57.76,76.26200000000006,0.75
Miandoab,0,IR,1570418581,46,36.97,46.1,53.6,2.1
Rawson,10,AR,1570418581,41,-43.3,-65.11,52.34000000000002,15.88
Mufulira,0,ZM,1570418582,66,-12.55,28.24,62.708000000000006,2.01
Riyadh,54,SA,1570418365,32,24.63,46.72,80.6,2.1
Sobolevo,0,RU,1570418582,96,54.43,31.9,28.220000000000063,2.67
Ca Mau,100,VN,1570418582,73,9.18,105.15,85.208,1.93
Nikolskoye,75,RU,1570418493,95,59.7,30.79,33.008,1
Henties Bay,0,NA,1570418582,87,-22.12,14.28,56.26400000000003,6.67
Vanavara,100,RU,1570418583,94,60.35,102.28,35.72600000000009,4.04
Betsiamites,90,CA,1570418583,81,48.94,-68.65,55.4,3.1
Iqaluit,75,CA,1570418583,86,63.75,-68.52,37.4,5.1
Worthing,75,GB,1570418583,100,50.81,-0.37,51.998000000000026,1
Amapa,40,HN,1570418467,83,15.09,-87.97,82.4,1
Kloulklubed,75,PW,1570418578,66,7.04,134.26,87.8,2.6
Praya,40,ID,1570418584,62,-8.71,116.27,86.0,6.7
Coquimbo,0,CL,1570418584,76,-29.95,-71.34,59.0,1.5
Muli,16,CN,1570418584,59,28.08,109.56,68.01800000000009,3.53
Halifax,75,CA,1570418482,87,44.65,-63.58,53.99600000000005,5.7
Tilichiki,100,RU,1570418585,96,60.47,166.1,38.228000000000065,6.48
Bukachacha,100,RU,1570418585,41,52.99,116.91,34.682000000000016,7.19
Jieshi,0,CN,1570418585,63,22.82,115.83,86.0,0.89
Todos Santos,5,MX,1570418585,65,23.45,-110.23,84.00200000000008,4.35
Sambava,61,MG,1570418585,97,-14.27,50.17,67.26200000000006,1.33
Clarksburg,90,US,1570418296,82,39.24,-77.28,69.99800000000002,2.1
Baft,6,IR,1570418586,89,29.23,56.61,48.36200000000006,1.57
Ayacucho,98,PE,1570418586,67,-13.16,-74.23,48.30800000000001,0.57
Cayenne,75,GF,1570418586,100,4.94,-52.33,73.4,2.01
Pingliang,63,CN,1570418586,50,35.54,106.68,48.72200000000004,1.45
Oxford,1,US,1570418587,100,33.61,-85.83,73.4,2.9
Erenhot,10,CN,1570418587,44,43.65,111.97,50.32400000000001,8.77
Sisimiut,15,GL,1570418587,72,66.94,-53.67,34.016000000000005,3.49
Constitucion,75,MX,1570418587,51,23.99,-104.67,69.99800000000002,2.1
Pearl Lagoon,49,NI,1570418587,91,12.34,-83.67,75.70400000000005,0.61
Provideniya,90,RU,1570418588,80,64.42,-173.23,35.6,6
Mitsamiouli,13,KM,1570418588,76,-11.38,43.28,79.30400000000006,7.76
Marawi,93,PH,1570418588,76,8,124.29,84.99199999999999,2.68
Namibe,98,AO,1570418588,76,-15.19,12.15,67.94600000000005,3.93
Weinan,20,CN,1570418588,87,34.5,109.46,60.8,1
Bambanglipuro,100,ID,1570418589,83,-7.95,110.28,77.01800000000009,6.21
Camacha,75,PT,1570418589,78,33.08,-16.33,73.4,7.7
Ayan,20,IR,1570418589,34,38.23,44.7,66.2,1
Port-Cartier,90,CA,1570418589,87,50.03,-66.88,44.00600000000003,2.1
Narsaq,40,GL,1570418589,34,60.91,-46.05,51.8,8.7
Indramayu,4,ID,1570418590,37,-4.05,103.78,84.27200000000003,2.62
Ancud,40,CL,1570418547,81,-41.87,-73.83,44.6,3.6
Oroville,1,US,1570418590,35,39.51,-121.56,73.4,2.6
Gillette,1,US,1570418590,49,44.29,-105.5,44.99600000000005,2.1
Nanakuli,90,US,1570418590,65,21.39,-158.15,82.4,1.5
Saint George,75,GR,1570418591,67,39.45,22.34,57.2,2.1
Huilong,100,CN,1570418591,89,31.15,106.5,63.05,3.78
Pinerovka,100,RU,1570418591,94,51.56,43.06,37.99400000000007,2.68
Pangody,2,RU,1570418591,80,65.85,74.49,32.360000000000085,8.84
Dharchula,97,IN,1570418591,55,29.85,80.53,57.128000000000064,1.33
Oranjemund,0,ZA,1570418592,86,-28.55,16.43,56.73200000000001,1.11
Banikoara,18,BJ,1570418592,97,11.3,2.44,73.11200000000005,2.09
Morbach,90,DE,1570418592,100,49.52,10.62,46.004000000000055,3.1
Cabedelo,20,BR,1570418592,83,-6.97,-34.84,77.0,4.1
Karratha,34,AU,1570418592,7,-20.74,116.85,103.46000000000008,4.96
Shubarkuduk,0,KZ,1570418593,32,49.15,56.49,48.74000000000002,5.35
Mawlaik,100,MM,1570418593,95,23.63,94.42,71.924,0.45
Acapulco,75,MX,1570418593,79,16.86,-99.88,84.2,2.6
Salalah,40,OM,1570418593,83,17.01,54.1,78.8,1.5
Husavik,48,CA,1570418593,80,50.56,-96.99,46.004000000000055,1.79
Skjervoy,100,NO,1570418594,76,70.03,20.97,43.32200000000004,8.4
Bandarbeyla,10,SO,1570418594,79,9.49,50.81,76.19000000000003,3.59
Belo Oriente,0,BR,1570418594,82,-19.22,-42.48,66.2,1.09
Altay,0,CN,1570418594,23,47.83,88.13,53.96000000000008,1.27
Zilair,0,RU,1570418594,52,52.23,57.44,43.50200000000008,4.21
Ust-Maya,100,RU,1570418595,47,60.42,134.54,33.674000000000014,3.07
Hasaki,75,JP,1570418595,73,35.73,140.83,75.99199999999999,5.7
Stephenville,90,CA,1570418595,93,48.55,-58.59,41.0,2.6
Arroyo,65,BO,1570418595,85,-11.08,-66.08,67.11800000000008,2.39
Hukuntsi,67,BW,1570418595,39,-23.98,21.76,72.30200000000008,5.06
Buala,70,SB,1570418596,76,-8.15,159.59,83.35400000000006,5.1
Bethel,90,US,1570418596,56,60.79,-161.76,44.6,2.6
Ladario,22,PT,1570418596,93,40.7,-7.74,57.992,0.57
Codrington,0,AU,1570418596,22,-28.95,153.24,100.99400000000007,0.5
Berlevag,40,NO,1570418596,93,70.86,29.09,37.4,3.1
Cabo San Lucas,5,MX,1570418368,65,22.89,-109.91,84.00200000000008,3.89
Tazovskiy,96,RU,1570418597,85,67.47,78.7,35.20400000000005,10.08
Victoria,75,BN,1570418490,74,5.28,115.24,86.0,2.1
Outjo,10,NA,1570418597,18,-20.11,16.16,67.58600000000007,4.2
Impfondo,100,CD,1570418597,98,1.62,18.06,69.71000000000008,0.86
Richards Bay,75,ZA,1570418597,88,-28.77,32.06,69.49400000000007,7.53
Santa Maria,0,BR,1570418598,73,-16.02,-48.01,71.6,1.21
Yulara,0,AU,1570418598,18,-25.24,130.99,87.8,5.1
Mahon,75,IE,1570418598,100,51.89,-8.4,57.992,7.2
Kruisfontein,100,ZA,1570418505,84,-34,24.73,58.01000000000008,0.67
Taoudenni,0,ML,1570418598,11,22.68,-3.98,81.21200000000006,3.06
Phalaborwa,0,ZA,1570418599,68,-23.95,31.14,66.2,2.1
Sabratah,7,LY,1570418599,75,32.79,12.49,70.32200000000003,1.47
Saint-Philippe,90,CA,1570418599,87,45.36,-73.48,62.00600000000003,5.1
Porto Walter,100,BR,1570418599,97,-8.27,-72.74,72.75200000000008,2.18
Lensk,100,RU,1570418599,85,60.71,114.91,31.783999999999992,5.59
Palmer,75,AU,1570418600,67,-34.85,139.16,64.99400000000007,3.6
Erzin,40,TR,1570418600,100,36.95,36.2,68.0,1.5
Wajima,75,JP,1570418600,68,37.4,136.9,68.0,1.5
Midyat,0,TR,1570418601,48,37.42,41.36,60.8,1
Fergus Falls,1,US,1570418601,76,46.28,-96.08,50.0,4.6
Xixiang,40,CN,1570418601,70,22.58,113.87,86.0,4
Davila,20,PH,1570418602,62,18.47,120.58,87.8,3.6
Khangarh,0,PK,1570418602,88,29.91,71.16,68.0,2.98
Rocha,0,UY,1570418602,96,-34.48,-54.34,47.01200000000006,3.04
Valparaiso,1,US,1570418322,58,41.47,-87.06,60.8,2.1
Bilibino,99,RU,1570418602,84,68.06,166.44,10.49000000000002,1.94
Nabire,100,ID,1570418603,53,-3.36,135.5,85.60400000000006,1.85
Caohai,82,CN,1570418603,75,26.87,104.28,61.86200000000006,3.61
Kargasok,88,RU,1570418603,92,59.06,80.87,48.038000000000046,1.61
San Cristobal,75,HN,1570418603,91,14.68,-86.92,67.658,2.02
Gboko,100,NG,1570418603,96,7.32,9,71.99600000000005,3.09
South Lake Tahoe,90,US,1570418404,26,38.93,-119.98,60.8,1.37
Uyskoye,4,RU,1570418604,60,54.37,60.01,41.360000000000085,1.65
Mayo,75,CA,1570418604,63,63.59,-135.9,30.2,1
Itaueira,34,BR,1570418604,40,-7.6,-43.03,79.016,2.09
Tessalit,87,ML,1570418604,11,20.2,1.01,86.48600000000008,3.78
Mandalgovi,64,MN,1570418605,47,45.76,106.27,41.774000000000015,5.66
North Bend,1,US,1570418576,82,43.41,-124.22,60.008,6.7
Batticaloa,100,LK,1570418605,80,7.71,81.69,78.65600000000003,0.4
Qitaihe,0,CN,1570418605,36,45.77,131.01,60.54800000000002,4.79
Omsukchan,100,RU,1570418605,93,62.53,155.8,8.294000000000075,3.27
Aktau,0,KZ,1570418605,26,43.65,51.16,57.2,4
Sitka,0,US,1570418606,69,37.17,-99.65,50.0,3.13
Ostrovnoy,100,RU,1570418606,96,68.05,39.51,32.018000000000086,4.76
Airai,7,TL,1570418606,42,-8.93,125.41,86.93600000000006,2.3
Bereda,59,ES,1570418606,100,43.27,-7.54,57.00200000000008,1.5
Pahalgam,100,IN,1570418606,86,34.03,75.33,48.16400000000003,0.7
Borovskoy,0,KZ,1570418408,64,53.8,64.15,48.398000000000025,2.56
Te Anau,100,NZ,1570418521,80,-45.41,167.72,44.90600000000003,3.69
Paamiut,0,GL,1570418607,75,61.99,-49.67,38.73200000000001,10.8
Torata,75,EC,1570418607,33,-3.6,-79.89,89.6,2.6
Topeka,1,US,1570418341,87,39.05,-95.68,53.00600000000003,2.75
Matagami,98,NG,1570418608,96,9.67,8.4,68.36000000000008,1
Flin Flon,25,CA,1570418608,81,54.77,-101.88,38.570000000000064,2.51
Ostersund,44,SE,1570418608,95,63.18,14.64,33.8,3.6
Pangnirtung,94,CA,1570418576,94,66.15,-65.72,24.15200000000008,1.41
Tyup,48,KG,1570418608,56,42.73,78.36,44.294000000000075,2.2
Letychiv,27,UA,1570418609,89,49.38,27.62,31.460000000000083,2.86
Katangli,92,RU,1570418609,55,51.71,143.23,54.03200000000002,7.65
Feltre,100,IT,1570418609,62,46.02,11.91,57.2,3.1
Savelugu,42,GH,1570418609,90,9.63,-0.83,75.27200000000003,1.47
Fairbanks,90,US,1570418354,86,64.84,-147.72,33.8,4.1
Vaitape,100,PF,1570418610,85,-16.52,-151.75,77.12600000000009,8.09
Alugan,100,PH,1570418587,89,12.22,125.48,81.57200000000003,2.38
Shurugwi,6,ZW,1570418610,39,-19.67,30,57.34400000000007,2.62
Merauke,0,ID,1570418610,83,-8.49,140.4,79.484,10.08
El Mante,20,MX,1570418610,77,20.61,-103.43,75.00200000000008,1.04
Vestmannaeyjar,100,IS,1570418472,81,63.44,-20.27,48.47000000000006,13.8
Lethem,65,GY,1570418611,67,3.38,-59.8,81.96800000000009,3.62
Pilar,0,AR,1570418561,50,-34.46,-58.91,62.6,3.6
Nizwa,100,OM,1570418611,69,22.93,57.53,73.45400000000005,1.65
Gimli,35,CA,1570418369,80,50.63,-96.99,46.004000000000055,1.79
Broome,97,GB,1570418611,93,52.47,1.45,55.004000000000055,1.25
Khor,0,RU,1570418611,57,47.88,134.96,56.228000000000065,7.2
Khislavichi,0,RU,1570418612,96,54.19,32.16,28.148000000000025,2.77
Isangel,75,VU,1570418612,69,-19.55,169.27,80.6,5.1
Okhotsk,0,RU,1570418612,27,59.36,143.24,34.141999999999996,5.36
High Level,75,CA,1570418612,53,58.52,-117.13,50.0,3.1
Shelburne,1,CA,1570418612,76,44.08,-80.2,53.99600000000005,3.1
Nara,40,JP,1570418368,51,34.68,135.8,80.6,1.5
Seybaplaya,75,MX,1570418613,94,19.65,-90.67,78.8,6.2
Havre,1,US,1570418613,67,48.55,-109.68,44.00600000000003,5.7
Gornozavodsk,89,RU,1570418613,83,58.37,58.33,39.398000000000025,1.59
Lawigan,2,PH,1570418613,60,10.49,122.04,88.44800000000002,3.24
Kavaratti,20,IN,1570418613,70,10.57,72.64,84.2,2.1
Zhanaozen,67,KZ,1570418614,18,43.35,52.85,60.08000000000004,7.59
Balabac,69,PH,1570418614,66,7.99,117.06,86.12600000000009,4.23
Khash,0,IR,1570418614,69,28.22,61.21,59.41400000000003,2.29
Adrar,0,DZ,1570418614,19,27.87,-0.29,75.2,5.7
Balabagan,92,PH,1570418614,73,7.51,124.13,82.09400000000008,2.04
Livadiya,100,RU,1570418615,63,42.87,132.68,58.11800000000009,3.78
Shingu,40,JP,1570418615,61,33.72,135.99,80.6,2.6
Churapcha,100,RU,1570418615,46,62,132.43,32.41400000000003,3
Yinchuan,91,CN,1570418615,43,38.48,106.21,53.438000000000045,1.41
Teya,40,MX,1570418616,83,21.05,-89.07,82.99400000000007,2.6
Hami,0,CN,1570418604,20,42.84,93.51,66.092,3.18
Arlit,0,NE,1570418616,14,18.74,7.39,89.33000000000004,3.55
Pampierstad,100,ZA,1570418616,44,-27.78,24.69,66.36200000000005,5.39
Yelizovo,0,RU,1570418616,42,53.19,158.38,48.2,8
Flinders,90,AU,1570418616,72,-34.58,150.85,75.00200000000008,4.1
Rio Grande,58,BR,1570418617,94,-32.03,-52.1,55.004000000000055,1.89
Qeshm,40,IR,1570418617,88,26.96,56.27,84.2,2.1
Nelson Bay,75,AU,1570418617,73,-32.72,152.14,73.99400000000007,6.7
Port Hedland,0,AU,1570418617,55,-20.31,118.58,89.6,7.2
Faya,0,SA,1570418617,39,18.39,42.45,64.4,0.69
Iquique,90,CL,1570418618,67,-20.22,-70.14,59.0,2.6
Jinka,100,ET,1570418618,93,5.79,36.57,63.194000000000074,1.3
Cuamba,17,MZ,1570418618,72,-14.8,36.54,70.98800000000004,1.08
Ilulissat,100,GL,1570418618,97,69.22,-51.1,32.0,3.6
Svetlogorsk,0,RU,1570418618,52,53.14,59.15,32.0,3
Saint-Augustin,75,CA,1570418619,93,45.63,-73.98,60.998000000000026,2.1
Bilma,5,NE,1570418619,46,18.69,12.92,83.01200000000006,2.21
Mareeba,2,AU,1570418619,48,-16.99,145.42,86.0,4.1
Melfi,75,IT,1570418619,100,41,15.66,62.6,1
Kuytun,95,RU,1570418619,84,54.34,101.51,41.55800000000001,2.25
Mlyniv,0,UA,1570418620,77,50.51,25.61,32.0,2
La Ronge,75,CA,1570418620,70,55.1,-105.3,42.8,2.6
Obo,98,CF,1570418620,96,5.39,26.49,66.38000000000004,0.42
Wao,75,PH,1570418620,74,7.64,124.73,79.82600000000009,2.43
Petropavlovsk-Kamchatskiy,0,RU,1570418621,42,53.05,158.65,48.2,8
Vangaindrano,1,MG,1570418621,95,-23.35,47.6,64.65200000000007,0.75
Inhambane,11,MZ,1570418621,96,-23.87,35.38,63.17600000000009,0.72
Jalu,0,LY,1570418409,81,29.03,21.55,64.94000000000003,3.11
Tolyatti,0,RU,1570418622,31,53.52,49.41,48.2,5
Biak,55,ID,1570418622,70,-0.91,122.88,73.67000000000006,2.36
Harper,1,US,1570418622,42,30.3,-99.24,82.4,4.01
Ayia Galini,1,GR,1570418622,77,35.1,24.68,69.8,5.7
Sylva,90,US,1570418623,93,35.37,-83.23,69.99800000000002,2.1
Bestobe,0,KZ,1570418623,54,52.5,73.1,54.95,2.42
Lakatoro,46,VU,1570418623,81,-16.11,167.42,79.41200000000006,7.07
Coihaique,90,CL,1570418576,86,-45.58,-72.07,41.0,1
Port Lincoln,32,AU,1570418623,72,-34.72,135.86,56.641999999999996,9.06
Nadym,19,RU,1570418623,77,65.53,72.51,33.35,8.54
Eureka,1,US,1570418356,87,40.8,-124.16,55.99400000000007,1.5
Serra Talhada,0,BR,1570418624,68,-7.99,-38.29,71.45600000000003,4.52
Belmonte,13,PT,1570418624,74,40.36,-7.35,55.99400000000007,1.24
Naze,100,NG,1570418624,98,5.43,7.07,73.25600000000003,1.36
Murmansk,75,RU,1570418434,93,68.97,33.08,37.4,1
Vanimo,2,PG,1570418625,70,-2.67,141.3,83.24600000000005,2.65
Port Moresby,40,PG,1570418625,70,-9.47,147.16,86.0,7.7
Adre,73,TD,1570418625,79,13.47,22.2,72.53600000000007,0.62
Bonfim,65,GY,1570418625,67,3.36,-59.84,81.96800000000009,3.62
Olovyannaya,0,RU,1570418625,26,50.94,115.59,40.85600000000003,9.98
Trat,20,TH,1570418626,70,12.25,102.51,87.99800000000002,1.5
Kamaishi,75,JP,1570418583,72,39.28,141.86,64.4,1.5
Havre-Saint-Pierre,75,CA,1570418626,100,50.23,-63.6,39.2,1.5
Siocon,87,PH,1570418626,59,11.03,124.04,88.142,1.73
Dir,100,CM,1570418626,98,6.33,13.54,65.71400000000003,1.5
Bismil,0,TR,1570418627,87,37.85,40.66,57.2,2.1
Namatanai,59,PG,1570418627,79,-3.66,152.44,81.41000000000008,4.87
Edd,79,ER,1570418627,56,13.93,41.69,87.674,1.89
Pabrade,75,LT,1570418627,91,55,25.78,32.0,2.1
Ahuimanu,90,US,1570418627,69,21.44,-157.84,82.4,3.1
Homer,1,US,1570418395,45,59.64,-151.54,46.4,3.1
Sept-Iles,90,CA,1570418493,87,50.2,-66.38,44.00600000000003,2.1
Kimbe,100,PG,1570418628,72,-5.56,150.15,86.63000000000004,1.31
Mongo,100,CD,1570418628,91,-5.62,14.6,70.97000000000006,3.27
Galle,100,GN,1570418628,99,10.08,-12.83,70.23200000000001,1.53
Luanda,75,AO,1570418629,88,-8.83,13.24,73.4,2.1
Almaznyy,40,RU,1570418629,75,48.03,40.04,44.6,4
Salinopolis,0,BR,1570418629,80,-0.61,-47.36,80.924,7.05
Nacala,25,MZ,1570418629,96,-14.56,40.69,70.64600000000004,1.76
Panguna,100,PG,1570418629,80,-6.32,155.48,83.24600000000005,8.69
Vuktyl,100,RU,1570418630,85,63.86,57.31,32.86400000000003,1.82
Nehe,100,CN,1570418630,76,48.48,124.88,48.02000000000006,4.52
Abnub,0,EG,1570418630,53,27.27,31.15,73.4,4.1
San Antonio,0,CL,1570418613,93,-33.58,-71.61,48.2,12.23
Sharjah,0,AE,1570418630,62,25.36,55.39,86.0,4.1
Pangoa,100,PE,1570418584,99,-12.12,-73,67.92800000000007,0.88
Manavgat,0,TR,1570418631,52,36.79,31.44,68.0,2.6
Daru,100,PG,1570418631,88,-9.07,143.21,77.95400000000005,5.56
Paita,2,PE,1570418631,89,-5.09,-81.11,62.42000000000006,8.25
Kurilsk,67,RU,1570418631,70,45.23,147.88,54.842,8.01
Walvis Bay,0,NA,1570418631,87,-22.95,14.51,48.2,2.1
Hun,75,BE,1570418632,100,50.34,4.87,51.008,2.6
Kaniama,77,CD,1570418632,92,-7.57,24.18,67.94600000000005,1.32
Tibiri,0,NE,1570418632,62,13.57,7.05,80.43800000000005,3.27
Turayf,0,SA,1570418632,63,31.68,38.65,62.6,1.5
Ponta do Sol,95,BR,1570418595,62,-20.63,-46,71.78000000000004,2.18
Port Hardy,90,CA,1570418627,93,50.7,-127.42,50.0,6.2
Mount Gambier,90,AU,1570418464,67,-37.83,140.78,59.0,7.2
Serpneve,100,UA,1570418633,70,46.3,29.02,47.89400000000008,4.38
Kharhial,53,IN,1570418633,81,20.28,82.77,77.88200000000002,0.7
Northam,20,AU,1570418633,37,-31.65,116.67,69.8,5.1
Aykhal,90,RU,1570418634,85,65.95,111.51,19.4,4
Saldanha,9,PT,1570418634,50,41.42,-6.55,57.97400000000001,0.59
Gamba,0,CN,1570418634,55,28.28,88.52,38.174000000000014,1.93
Boende,100,CD,1570418634,98,-0.28,20.88,70.98800000000004,0.62
Afua,100,NG,1570418634,97,5.27,7.87,73.16600000000001,1.1
Ust-Omchug,0,RU,1570418634,78,61.13,149.63,13.478000000000065,2.22
Jerez,98,ES,1570418635,82,36.68,-6.14,71.00600000000003,0.5
Half Moon Bay,75,US,1570418635,30,37.46,-122.43,73.4,6.7
Pedernales,100,EC,1570418635,85,0.07,-80.05,73.41800000000009,4.47
Winslow,100,GB,1570418635,100,51.94,-0.88,51.8,0.5
Talnakh,90,RU,1570418636,96,69.49,88.39,32.0,4
Zhangjiakou,0,CN,1570418636,29,40.77,114.88,53.69000000000002,9.02
Tamworth,0,AU,1570418370,7,-31.09,150.93,96.8,9.8
Beidao,93,CN,1570418636,57,34.57,105.89,53.83399999999999,3.18
Sabzevar,0,IR,1570418636,25,36.21,57.68,55.562000000000054,1.78
Bellmead,5,US,1570418528,45,31.59,-97.11,84.2,2.1
Tezu,93,IN,1570418512,73,27.93,96.16,78.85400000000006,0.86
Kodinsk,100,RU,1570418637,94,58.6,99.18,40.064000000000036,4.41
Tubuala,40,PA,1570418637,100,9.52,-79.03,78.00800000000001,2.1
Zhangye,5,CN,1570418637,53,38.94,100.46,52.358000000000004,3.09
Jerantut,66,MY,1570418637,70,3.94,102.37,83.60600000000002,1
San Vicente,75,EC,1570418638,88,-0.59,-80.41,71.6,2.6
San Luis,0,AR,1570418544,36,-33.3,-66.34,66.56000000000009,10.12
Valenca,31,BR,1570418638,99,-13.37,-39.07,65.12000000000006,0.36
Urucui,54,BR,1570418638,39,-7.23,-44.56,83.55200000000008,0.8
Plettenberg Bay,59,ZA,1570418638,91,-34.05,23.37,53.61800000000009,1.21
Nago,75,IT,1570418639,93,45.88,10.89,57.2,2.6
Xuanzhou,100,CN,1570418639,72,30.95,118.78,65.66000000000008,3.65
Asosa,90,ET,1570418639,93,10.07,34.53,62.47400000000001,2.01
Port Hueneme,1,US,1570418639,68,34.15,-119.2,71.99600000000005,2.1
Bani Walid,81,LY,1570418639,35,31.76,14,64.5260000000001,3.08
Sur,0,OM,1570418640,68,22.57,59.53,80.54600000000005,3.88
Bell Ville,0,AR,1570418640,49,-32.63,-62.69,56.93000000000004,5.49
San Rafael,1,AR,1570418640,28,-34.61,-68.33,58.01000000000008,0.72
Manaquiri,0,BR,1570418640,88,-3.43,-60.46,78.8,1
Dargaville,0,NZ,1570418640,83,-35.94,173.86,60.49400000000007,4.42
Batsfjord,75,NO,1570418641,86,70.63,29.72,39.2,3.1
Melita,56,CA,1570418641,77,49.27,-100.98,46.004000000000055,2.68
Cejkovice,0,CZ,1570418641,69,48.91,16.94,42.008,1
Esmeraldas,0,BR,1570418641,64,-19.76,-44.31,71.6,3.1
San Patricio,36,PY,1570418534,96,-26.98,-56.83,58.94600000000005,2.06
Pacific Grove,1,US,1570418642,42,36.62,-121.92,71.00600000000003,2.1
Lorengau,28,PG,1570418578,77,-2.02,147.27,83.80400000000006,3.68
Matara,78,BI,1570418642,92,-3.48,29.48,52.39400000000008,1.37
Kanigiri,19,IN,1570418642,71,15.41,79.51,82.67000000000006,1.58
Bonavista,0,CA,1570418561,87,48.65,-53.11,44.00600000000003,4.47
Podosinovets,100,RU,1570418642,97,60.28,47.06,36.860000000000085,3.88
Naryan-Mar,0,RU,1570418585,88,67.67,53.09,30.164000000000033,3.33
Clarence Town,75,AU,1570418643,73,-32.59,151.78,73.99400000000007,6.7
Baykit,100,RU,1570418643,99,61.68,96.39,38.69600000000005,2.32
Brandon,1,US,1570418643,57,43.59,-96.57,51.998000000000026,2.1
Wagar,58,US,1570418643,84,31.44,-87.99,75.99199999999999,1.73
Hamilton,90,CA,1570418597,71,43.26,-79.87,62.6,2.1
Port-Gentil,88,GA,1570418644,86,-0.72,8.78,77.792,5.58
Belyy Yar,75,RU,1570418644,100,53.6,91.39,42.8,1.92
Marzuq,96,YE,1570418644,45,14.4,46.47,74.44400000000007,1.15
Ondangwa,5,NA,1570418645,26,-17.91,15.98,78.8,2.6
Rundu,78,NA,1570418645,27,-17.91,19.77,73.4,1.5
Williams Lake,90,CA,1570418645,53,52.13,-122.14,50.0,7.2
Bowen,58,AU,1570418645,27,-20.01,148.25,91.4,2.6
Pilot Butte,20,CA,1570418646,63,50.48,-104.42,42.008,3.6
Cockburn Town,97,TC,1570418572,75,21.46,-71.14,83.73200000000001,6.08
Podporozhye,100,RU,1570418646,96,60.91,34.16,29.191999999999997,1.71
Garanhuns,61,BR,1570418646,91,-8.89,-36.49,63.806000000000026,5.72
Gotsu,75,JP,1570418646,73,35.01,132.22,71.6,2.6
Guhagar,35,IN,1570418349,78,17.48,73.19,81.55400000000006,2.79
Riachao das Neves,95,BR,1570418647,55,-11.75,-44.91,76.91000000000008,0.69
Samana,100,EC,1570418647,96,0.12,-76.97,71.2760000000001,1.31
Norilsk,90,RU,1570418647,96,69.35,88.2,32.0,4
Mayumba,100,GA,1570418647,89,-3.44,10.65,76.64000000000001,6.12
